[
		{
			"name": "West Pool",
			"description": "",
			"imageURL": "/images/West_Pool.jpeg",
			"favorited": true,
			"address": "235 Sam McDonald Mall, Stanford, CA 94305",
			"telephone": "(650) 326-1000",
			"hours": "Monday - Sunday: 7:00am - 9:00pm",
			"open": "7:00",
			"closed": "21:00",
			"website": "http://cardinalrec.stanford.edu/",
			"latitude": "37.43145",
			"longitude": "-122.16213",
			"category": "workout"	
		},
		{
			"name": "Arrillaga Gym",
			"description": "",
			"imageURL": "/images/Arrillaga_Gym.jpg",
			"favorited": false,
			"address": "341 Galvez St, Stanford, CA 94305",
			"telephone": "(650) 724-9872",
			"hours": "Monday - Thursday: 6:00am - 12:00pm Friday: 6:00am - 12:00pm Saturday: 9:00am - 8:00pm Sunday: 9:00am - 12:00am",
			"open": "6:00",
			"closed": "23:59",
			"website": "http://cardinalrec.stanford.edu/",
			"latitude": "37.42956",
			"longitude": "-122.16408",
			"category": "workout"			
		},
		{
			"name": "Ford Center",
			"description": "",
			"imageURL": "/images/Ford_Center.jpg",
			"favorited": true,
			"address": "615 Serra St, Stanford, CA 94305",
			"telephone": "",
			"hours": "Monday - Thursday: 6:00am - 11:00pm Friday: 6:00am - 10:00pm Saturday: 9:00am - 7:00pm Sunday: 9:00am - 11:00pm",
			"open": "6:00",
			"closed": "22:00",
			"website": "http://www.gostanford.com/ViewArticle.dbml?DB_OEM_ID=30600&ATCLID=208446884",
			"latitude": "37.42801",
			"longitude": "-122.16448",
			"category": "workout"				
		}
]
