[
		{
			"name": "Gott's",
			"description": "Burgers and Brew",
			"imageURL": "/images/Gotts.jpg",
			"favorited": true,
			"address": "855 El Camino Real #65, Palo Alto, California, 94301",
			"telephone": "(650) 326-1000",
			"hours": "Monday - Sunday: 7:00am - 9:00pm",
			"website": "gotts.com/",
			"latitude": "37.43888",
			"longitude": "-122.15932"
		},
		{
			"name": "Subway",
			"description": "Eat fresh",
			"imageURL": "/images/Subway.jpg",
			"favorited": true,
			"address": "459 Lagunita Dr #5, Stanford, CA 94305",
			"telephone": "(650) 725-2098",
			"hours": "Monday - Friday: 9:00am - 7:00pm Saturday - Sunday: 11:00am - 4:00pm",
			"website": "https://www.subway.com/‎",
			"latitude": "37.42410",
			"longitude": "-122.17066"			
		},
		{
			"name": "Jimmy V's",
			"description": "Teams that eat together, play together, win together",
			"imageURL": "/images/Jimmy.jpg",
			"favorited": false,
			"address": "641 Campus Dr, Stanford, CA 94305",
			"telephone": "(650) 724-6465",
			"hours": "Monday - Friday: 7:00am - 4:00pm",
			"website": "https://www.facebook.com/pages/Jimmy-Vs-Sports-Cafe/123803080731",
			"latitude": "37.43019",
			"longitude": "-122.16194"
		},
		{
			"name": "Panda Express",
			"description": "Asian finest.",
			"imageURL": "/images/Panda.jpeg",
			"favorited": true,
			"address": "459 Lagunita Dr, Stanford, CA 94305",
			"telephone": "(650) 330-1906",
			"hours": "Monday - Friday: 10:00am - 9:00pm Saturday - Sunday: 10:00am - 8:00pm",
			"website": "https://www.pandaexpress.com/‎",
			"latitude": "37.42410",
			"longitude": "-122.17066"
		},
		{
			"name": "Starbucks",
			"description": "Fair-trade coffee",
			"imageURL": "/images/Starbucks.jpg",
			"favorited": true,
			"address": "459 Lagunita Dr, Stanford, CA 94305",
			"telephone": "(650) 330-1906",
			"hours": "Monday - Friday: 6:30am - 11:00pm Saturday:  7:00am - 9:00pm Sunday: 7:00am - 10:00pm",
			"website": "https://www.starbucks.com/‎",
			"latitude": "37.42410",
			"longitude": "-122.17066"
		}
]
