[
		{
			"name": "Gott's",
			"description": "Burgers and Brew",
			"imageURL": "/images/Gotts.jpg",
			"favorited": true,
			"address": "855 El Camino Real #65, Palo Alto, California, 94301",
			"telephone": "(650) 326-1000",
			"hours": "Monday - Sunday: 7:00am - 9:00pm",
			"website": "gotts.com/",
			"latitude": "37.43888",
			"longitude": "-122.15932",
			"category": "food"
		},
		{
			"name": "Subway",
			"description": "Eat fresh",
			"imageURL": "/images/Subway.jpg",
			"favorited": true,
			"address": "459 Lagunita Dr #5, Stanford, CA 94305",
			"telephone": "(650) 725-2098",
			"hours": "Monday - Friday: 9:00am - 7:00pm Saturday - Sunday: 11:00am - 4:00pm",
			"website": "https://www.subway.com/‎",
			"latitude": "37.42410",
			"longitude": "-122.17066",
			"category": "food"			
		},
		{
			"name": "Jimmy V's",
			"description": "Teams that eat together, play together, win together",
			"imageURL": "/images/Jimmy.jpg",
			"favorited": false,
			"address": "641 Campus Dr, Stanford, CA 94305",
			"telephone": "(650) 724-6465",
			"hours": "Monday - Friday: 7:00am - 4:00pm",
			"website": "https://www.facebook.com/pages/Jimmy-Vs-Sports-Cafe/123803080731",
			"latitude": "37.43019",
			"longitude": "-122.16194",
			"category": "food"
		},
		{
			"name": "Panda Express",
			"description": "Asian finest.",
			"imageURL": "/images/Panda.jpeg",
			"favorited": true,
			"address": "459 Lagunita Dr, Stanford, CA 94305",
			"telephone": "(650) 330-1906",
			"hours": "Monday - Friday: 10:00am - 9:00pm Saturday - Sunday: 10:00am - 8:00pm",
			"website": "https://www.pandaexpress.com/‎",
			"latitude": "37.42410",
			"longitude": "-122.17066",
			"category": "food"
		},
		{
			"name": "Starbucks",
			"description": "Fair-trade coffee",
			"imageURL": "/images/Starbucks.jpg",
			"favorited": true,
			"address": "459 Lagunita Dr, Stanford, CA 94305",
			"telephone": "(650) 330-1906",
			"hours": "Monday - Friday: 6:30am - 11:00pm Saturday:  7:00am - 9:00pm Sunday: 7:00am - 10:00pm",
			"website": "https://www.starbucks.com/‎",
			"latitude": "37.42410",
			"longitude": "-122.17066",
			"category": "food"
		},
		{
			"name": "The Patio",
			"description": "",
			"imageURL": "/images/The_Patio.jpg",
			"favorited": false,
			"address": "412 Emerson St, Palo Alto, CA 94301",
			"telephone": "(650) 322-2575",
			"hours": "Monday - Friday: 11:30am - 2:00am Saturday - Sunday: 9:00am - 2:00am",
			"website": "http://www.thepatiopa.com/",
			"latitude": "37.44506",
			"longitude": "-122.16395",
			"category": "party"
		},
		{
			"name": "Old Pro",
			"description": "",
			"imageURL": "/images/Old_Pro.jpg",
			"favorited": true,
			"address": "541 Ramona St, Palo Alto, CA 94301",
			"telephone": "(650) 326-1446",
			"hours": "Monday: 4:00pm - 12:00am Tuesday - Saturday: 11:00am - 2:00am Sunday 11:00am - 12:00am",
			"website": "http://oldpropa.com/",
			"latitude": "37.44494",
			"longitude": "-122.16119",
			"category": "party"		
		},
		{
			"name": "West Pool",
			"description": "",
			"imageURL": "/images/West_Pool.jpeg",
			"favorited": true,
			"address": "235 Sam McDonald Mall, Stanford, CA 94305",
			"telephone": "(650) 326-1000",
			"hours": "Monday - Sunday: 7:00am - 9:00pm",
			"website": "http://cardinalrec.stanford.edu/",
			"latitude": "37.43145",
			"longitude": "-122.16213",
			"category": "workout"	
		},
		{
			"name": "Arrillaga Gym",
			"description": "",
			"imageURL": "/images/Arrillaga_Gym.jpg",
			"favorited": false,
			"address": "341 Galvez St, Stanford, CA 94305",
			"telephone": "(650) 724-9872",
			"hours": "Monday - Thursday: 6:00am - 12:00pm Friday: 6:00am - 12:00pm Saturday: 9:00am - 8:00pm Sunday: 9:00am - 12:00am",
			"website": "http://cardinalrec.stanford.edu/",
			"latitude": "37.42956",
			"longitude": "-122.16408",
			"category": "workout"			
		},
		{
			"name": "Ford Center",
			"description": "",
			"imageURL": "/images/Ford_Center.jpg",
			"favorited": true,
			"address": "615 Serra St, Stanford, CA 94305",
			"telephone": "",
			"hours": "Monday - Thursday: 6:00am - 11:00pm Friday: 6:00am - 10:00pm Saturday: 9:00am - 7:00pm Sunday: 9:00am - 11:00pm",
			"website": "http://www.gostanford.com/ViewArticle.dbml?DB_OEM_ID=30600&ATCLID=208446884",
			"latitude": "37.42801",
			"longitude": "-122.16448",
			"category": "workout"				
		}
]
